{"query":{"count":1,"created":"2015-01-15T14:52:30Z","lang":"en-US","results":{"Result":{"quality":"40","latitude":"51.56782","longitude":"0.44482","offsetlat":"51.56782","offsetlon":"0.44482","radius":"10900","name":null,"line1":null,"line2":"Basildon","line3":null,"line4":"United Kingdom","house":null,"street":null,"xstreet":null,"unittype":null,"unit":null,"neighborhood":null,"city":"Basildon","county":"Essex","state":"England","country":"United Kingdom","countrycode":"GB","statecode":"ENG","countycode":"ESS","uzip":"SS15 5","hash":null,"woeid":"12031","woetype":"7"}}}}{"query":{"count":1,"created":"2015-01-15T14:52:30Z","lang":"en-US","results":{"Result":{"quality":"50","latitude":"51.572922","longitude":"-1.20359","offsetlat":"51.572922","offsetlon":"-1.20359","radius":"800","name":null,"line1":null,"line2":"Aston Upthorpe, Didcot","line3":null,"line4":"United Kingdom","house":null,"street":null,"xstreet":null,"unittype":null,"unit":null,"neighborhood":"Aston Upthorpe","city":"Didcot","county":"Oxfordshire","state":"England","country":"United Kingdom","countrycode":"GB","statecode":"ENG","countycode":"OXF","uzip":"OX11 9","hash":null,"woeid":"11331","woetype":"7"}}}}{"query":{"count":1,"created":"2015-01-15T14:52:30Z","lang":"en-US","results":{"Result":{"quality":"50","latitude":"51.5701","longitude":"-1.20076","offsetlat":"51.5701","offsetlon":"-1.20076","radius":"1100","name":null,"line1":null,"line2":"Aston Tirrold, Didcot","line3":null,"line4":"United Kingdom","house":null,"street":null,"xstreet":null,"unittype":null,"unit":null,"neighborhood":"Aston Tirrold","city":"Didcot","county":"Oxfordshire","state":"England","country":"United Kingdom","countrycode":"GB","statecode":"ENG","countycode":"OXF","uzip":"OX11 9","hash":null,"woeid":"11330","woetype":"7"}}}}{"query":{"count":1,"created":"2015-01-15T14:50:51Z","lang":"en-US","results":{"Result":{"quality":"50","latitude":"51.48856","longitude":"-1.18706","offsetlat":"51.48856","offsetlon":"-1.18706","radius":"3100","name":null,"line1":null,"line2":"Ashampstead, Reading","line3":null,"line4":"United Kingdom","house":null,"street":null,"xstreet":null,"unittype":null,"unit":null,"neighborhood":"Ashampstead","city":"Reading","county":"Berkshire","state":"England","country":"United Kingdom","countrycode":"GB","statecode":"ENG","countycode":null,"uzip":"RG8 8","hash":null,"woeid":"11115","woetype":"7"}}}}{"query":{"count":1,"created":"2015-01-15T14:52:29Z","lang":"en-US","results":{"Result":{"quality":"40","latitude":"44.26178","longitude":"-88.41656","offsetlat":"44.26178","offsetlon":"-88.41656","radius":"10300","name":null,"line1":null,"line2":"Appleton, WI","line3":null,"line4":"United States","house":null,"street":null,"xstreet":null,"unittype":null,"unit":null,"postal":null,"neighborhood":null,"city":"Appleton","county":"Outagamie County","state":"Wisconsin","country":"United States","countrycode":"US","statecode":"WI","countycode":null,"uzip":"54914","hash":null,"woeid":"2355326","woetype":"7"}}}}{"query":{"count":1,"created":"2015-01-15T14:52:29Z","lang":"en-US","results":{"Result":{"quality":"50","latitude":"51.63862","longitude":"-1.24038","offsetlat":"51.63862","offsetlon":"-1.24038","radius":"600","name":null,"line1":null,"line2":"Appleford, Abingdon","line3":null,"line4":"United Kingdom","house":null,"street":null,"xstreet":null,"unittype":null,"unit":null,"neighborhood":"Appleford","city":"Abingdon","county":"Oxfordshire","state":"England","country":"United Kingdom","countrycode":"GB","statecode":"ENG","countycode":"OXF","uzip":"OX14 4","hash":null,"woeid":"10887","woetype":"7"}}}}{"query":{"count":1,"created":"2015-01-15T14:48:27Z","lang":"en-US","results":{"Result":{"quality":"39","latitude":"51.672699","longitude":"-1.28405","offsetlat":"51.674339","offsetlon":"-1.28356","radius":"3500","name":null,"line1":null,"line2":"Abingdon","line3":null,"line4":"United Kingdom","house":null,"street":null,"xstreet":null,"unittype":null,"unit":null,"postal":null,"neighborhood":null,"city":"Abingdon","county":"Oxfordshire","state":"England","country":"United Kingdom","countrycode":"GB","statecode":"ENG","countycode":"OXF","uzip":"OX14 1","hash":null,"woeid":"10294","woetype":"7"}}}}{"query":{"count":1,"created":"2015-01-15T14:48:29Z","lang":"en-US","results":{"Result":{"quality":"39","latitude":"51.672699","longitude":"-1.28405","offsetlat":"51.674339","offsetlon":"-1.28356","radius":"3500","name":null,"line1":null,"line2":"Abingdon","line3":null,"line4":"United Kingdom","house":null,"street":null,"xstreet":null,"unittype":null,"unit":null,"postal":null,"neighborhood":null,"city":"Abingdon","county":"Oxfordshire","state":"England","country":"United Kingdom","countrycode":"GB","statecode":"ENG","countycode":"OXF","uzip":"OX14 1","hash":null,"woeid":"10294","woetype":"7"}}}}